State,District,District code,Latitude,Longitude,Population,Housholds_with_Electric_Lighting,Households_with_Internet,Sex_Ratio,Litrecay_Ratio
Jammu and Kashmir,Kargil,4,33.565994894894914,76.63675315315312,140802,15824,235,80.0,60.0
Jammu and Kashmir,Punch,5,33.791241290322574,74.29593161290322,476835,62900,346,90.0,50.0
Jammu and Kashmir,Kathua,7,32.51781678321678,75.58901398601404,616435,109422,1443,90.0,60.0
Jammu and Kashmir,Srinagar,10,34.27312898550724,75.11021159420288,1236829,165403,16413,90.0,60.0
Jammu and Kashmir,Pulwama,12,33.88414418604652,75.00921860465118,560440,73629,1537,90.0,50.0
Jammu and Kashmir,Doda,16,33.359614675767915,76.07163720136518,409936,61831,596,90.0,50.0
Jammu and Kashmir,Udhampur,19,33.04770670731707,75.15286951219511,554985,73999,1214,90.0,60.0
Jammu and Kashmir,Jammu,21,32.713199095022645,74.8477520361991,1529958,294739,19905,90.0,70.0
Himachal Pradesh,Chamba,23,32.66741814595661,76.39354063116366,519080,96082,1615,100.0,60.0
Himachal Pradesh,Kangra,24,32.14093603238864,76.41205910931173,1510075,330081,8053,100.0,80.0
Himachal Pradesh,Kullu,26,31.90911922077925,77.40922649350647,437903,91322,2623,90.0,70.0
Himachal Pradesh,Mandi,27,31.635805940594054,76.96556930693067,999777,214491,5333,100.0,70.0
Himachal Pradesh,Hamirpur,28,31.67668481012659,76.49767088607594,454768,104120,2521,110.00000000000001,80.0
Uttar Pradesh,Hamirpur,28,25.738158381502892,79.82619479768789,454768,104120,2521,110.00000000000001,80.0
Himachal Pradesh,Hamirpur,168,31.67668481012659,76.49767088607594,1104285,55929,1196,90.0,60.0
Uttar Pradesh,Hamirpur,168,25.738158381502892,79.82619479768789,1104285,55929,1196,90.0,60.0
Himachal Pradesh,Una,29,31.58330388349513,76.18353932038836,521173,105929,2412,100.0,80.0
Chhattisgarh,Bilaspur,30,22.356942982456143,81.99770350877188,381956,79146,1574,100.0,80.0
Himachal Pradesh,Bilaspur,30,31.3780422907489,76.65316079295157,381956,79146,1574,100.0,80.0
Chhattisgarh,Bilaspur,406,22.356942982456143,81.99770350877188,2663629,519704,8566,100.0,60.0
Himachal Pradesh,Bilaspur,406,31.3780422907489,76.65316079295157,2663629,519704,8566,100.0,60.0
Himachal Pradesh,Solan,31,31.03864311926604,76.94442140672783,580320,119866,5250,90.0,70.0
Himachal Pradesh,Sirmaur,32,30.682764453961443,77.43184689507493,529855,91509,2220,90.0,70.0
Himachal Pradesh,Shimla,33,31.155725451807253,77.62573042168668,814010,172754,9177,90.0,80.0
Himachal Pradesh,Kinnaur,34,31.60667184065933,78.51613736263741,84121,17865,354,80.0,70.0
Punjab,Gurdaspur,35,32.04283371212125,75.3204064393939,2298323,411216,14428,90.0,70.0
Punjab,Kapurthala,36,31.336592638036837,75.47641165644177,815168,161206,9732,90.0,70.0
Punjab,Jalandhar,37,31.250336907216507,75.54400350515463,2193590,446200,39082,90.0,70.0
Punjab,Hoshiarpur,38,31.55157169811319,75.8469857442349,1586625,319930,13747,100.0,80.0
Punjab,Fatehgarh Sahib,40,30.64290947368421,76.36208394736842,600163,113683,5138,90.0,70.0
Punjab,Ludhiana,41,30.76596397379912,75.83110851528383,3498739,703624,58589,90.0,70.0
Punjab,Moga,42,30.756540067340065,75.1600845117845,995746,183396,7897,90.0,60.0
Punjab,Firozpur,43,30.63407535211269,74.40245732394365,2029074,349662,10042,90.0,60.0
Punjab,Muktsar,44,30.31243303303303,74.5518747747748,901896,166585,4571,90.0,60.0
Punjab,Faridkot,45,30.591187250996025,74.79751553784862,617508,113549,4348,90.0,60.0
Punjab,Bathinda,46,30.190524611973352,75.05685898004438,1388525,255650,11284,90.0,60.0
Punjab,Mansa,47,29.919547714285724,75.4304922857143,769751,140099,2673,90.0,60.0
Punjab,Patiala,48,30.214540380693364,76.27505893949697,1895686,352929,24274,90.0,70.0
Punjab,Amritsar,49,31.548679820627772,74.79883856502238,2490656,461231,29961,90.0,70.0
Punjab,Rupnagar,51,30.910937330754347,76.53743500967126,684627,129123,6600,90.0,70.0
Punjab,Sangrur,53,30.185045204336895,75.89437014178496,1655169,305557,10736,90.0,60.0
Chandigarh,Chandigarh,55,30.7426,76.75872465753424,1055450,231204,44283,80.0,80.0
Uttaranchal,Uttarkashi,56,30.968958552036234,78.56880615384617,330086,52621,602,100.0,70.0
Uttaranchal,Chamoli,57,30.58338611464965,79.56281095541402,391605,71524,899,100.0,70.0
Uttaranchal,Tehri Garhwal,59,30.463700918635173,78.48783792650917,618931,117239,1366,110.00000000000001,70.0
Uttaranchal,Pithoragarh,62,30.14720631868129,80.34229230769236,483439,95421,1344,100.0,70.0
Uttaranchal,Bageshwar,63,29.98703393393397,79.83954354354357,259898,47083,435,110.00000000000001,70.0
Uttaranchal,Almora,64,29.683532133676103,79.50165064267351,622506,109876,1830,110.00000000000001,70.0
Uttaranchal,Champawat,65,29.29142393939393,80.07720212121217,259648,37725,548,100.0,70.0
Uttaranchal,Udham Singh Nagar,67,29.02779577677222,79.45629004524895,1648902,254802,7883,90.0,60.0
Haryana,Panchkula,69,30.700897142857134,76.97173238095236,561293,103455,18615,90.0,70.0
Haryana,Ambala,70,30.3503672316384,76.94970310734456,1128350,199681,12899,90.0,70.0
Haryana,Kurukshetra,72,30.05652659846548,76.78774680306903,964655,171908,7356,90.0,70.0
Haryana,Kaithal,73,29.96068539094649,76.37698930041155,1074304,187349,3724,90.0,60.0
Haryana,Karnal,74,29.703200647249204,76.87488025889972,1505324,267223,11163,90.0,60.0
Haryana,Panipat,75,29.34352134146342,76.92895914634147,1205437,209965,10024,90.0,70.0
Haryana,Jind,77,29.45149821958457,76.29598575667653,1334152,222462,5263,90.0,60.0
Haryana,Fatehabad,78,29.57298318584072,75.54608716814157,942011,153301,3210,90.0,60.0
Haryana,Sirsa,79,29.63583446327684,74.90970480225988,1295189,215527,6287,90.0,60.0
Haryana,Hisar,80,29.23628731117825,75.84324682779452,1743931,285004,10132,90.0,60.0
Haryana,Bhiwani,81,28.728868064516128,76.02110225806452,1634445,266244,5292,90.0,70.0
Haryana,Rohtak,82,28.892517647058817,76.53123235294117,1061204,193120,8482,90.0,70.0
Haryana,Jhajjar,83,28.59651868131869,76.61137142857145,958405,168558,5034,90.0,70.0
Haryana,Mahendragarh,84,28.1352161458333,76.14018072916659,922088,135455,2624,90.0,70.0
Haryana,Rewari,85,28.19164714828897,76.55956007604564,900332,152651,5121,90.0,70.0
Haryana,Gurgaon,86,28.043894789579163,77.01935130260523,1514432,305751,67087,90.0,70.0
Haryana,Faridabad,88,28.14873109756098,77.32718536585368,1809733,333171,43437,90.0,70.0
Sikkim,East,93,27.29600352941175,88.74908392156858,1709346,352758,80037,90.0,80.0
Rajasthan,Ganganagar,99,29.256785412667963,73.56192303262948,1969168,283142,6295,90.0,60.0
Rajasthan,Hanumangarh,100,29.1813351791531,74.74632573289902,1774692,243163,3360,90.0,60.0
Rajasthan,Bikaner,101,28.12489068322981,73.26943322981371,2363937,220793,7607,90.0,50.0
Rajasthan,Churu,102,28.29330375536484,74.65846427038629,2039547,231696,2577,90.0,60.0
Rajasthan,Jhunjhunun,103,28.13517401247401,75.52840893970894,2137045,297559,4828,100.0,60.0
Rajasthan,Alwar,104,27.55271738035265,76.65359630562563,3674179,485723,9750,90.0,60.0
Rajasthan,Bharatpur,105,27.32411858037578,77.21752077244258,2548462,288723,4179,90.0,60.0
Rajasthan,Dhaulpur,106,26.72397054945053,77.74476219780222,1206516,96086,1330,80.0,60.0
Rajasthan,Karauli,107,26.51901555555556,76.96081818181815,1458248,132079,1059,90.0,60.0
Rajasthan,Sawai Madhopur,108,26.251081180223288,76.4219283891548,1335551,140947,1887,90.0,60.0
Rajasthan,Dausa,109,26.91234817629181,76.57342097264443,1634409,195277,1719,90.0,60.0
Rajasthan,Jaipur,110,27.033459290187885,75.77117286012533,6626178,990085,76565,90.0,60.0
Rajasthan,Sikar,111,27.64644058641976,75.29317422839503,2677333,339457,5647,90.0,60.0
Rajasthan,Nagaur,112,27.07862016048146,74.14215667001012,3307743,347344,4449,90.0,50.0
Rajasthan,Jodhpur,113,26.678460838536967,73.00450847457628,3687165,408808,19335,90.0,60.0
Rajasthan,Jaisalmer,114,26.86900838548185,71.18371877346682,669919,43141,754,90.0,50.0
Rajasthan,Barmer,115,25.77070908045978,71.50297126436782,2603751,126494,2766,90.0,50.0
Rajasthan,Jalor,116,25.07578093797277,72.18647261724662,1828730,161845,1585,100.0,50.0
Rajasthan,Sirohi,117,24.7976905263158,72.75309131578943,1036346,134089,2146,90.0,50.0
Rajasthan,Pali,118,25.80490393541874,73.55285640766907,2037573,326793,4043,100.0,50.0
Rajasthan,Ajmer,119,26.199300378787903,74.6990419191919,2583052,393498,13499,100.0,60.0
Rajasthan,Tonk,120,26.153935071707927,75.79192216427637,1421326,158264,1908,100.0,50.0
Rajasthan,Bundi,121,25.48580716049379,75.79984074074079,1110906,136969,1392,90.0,50.0
Rajasthan,Bhilwara,122,25.45119767759564,74.63947595628417,2408523,373644,6207,100.0,50.0
Rajasthan,Rajsamand,123,25.24894767441859,73.96570215946844,1156597,193276,1989,100.0,50.0
Rajasthan,Dungarpur,124,23.75104807692308,73.84765641025645,1388552,141275,1477,100.0,50.0
Rajasthan,Banswara,125,23.453642032967014,74.44246868131869,1797485,120603,2324,100.0,50.0
Rajasthan,Chittaurgarh,126,24.631623761665463,74.80010997846382,1544338,268172,4941,100.0,50.0
Rajasthan,Kota,127,25.175718080000014,76.18618928000001,1951014,339899,12843,90.0,70.0
Rajasthan,Baran,128,24.98023243243244,76.86210651828291,1222755,161310,1363,90.0,60.0
Rajasthan,Jhalawar,129,24.24725541474657,76.11242891705065,1411129,220428,1750,90.0,50.0
Rajasthan,Udaipur,130,24.44076752136749,73.84029839743584,3068420,357846,14211,100.0,50.0
Uttar Pradesh,Pratapgarh,131,25.864842731707316,81.93530048780492,867848,71612,716,100.0,50.0
Uttar Pradesh,Pratapgarh,173,25.864842731707316,81.93530048780492,3209141,140538,5149,100.0,60.0
Uttar Pradesh,Saharanpur,132,30.03381165217392,77.59905147826095,3466382,404499,9699,90.0,60.0
Uttar Pradesh,Muzaffarnagar,133,29.470507977736563,77.64017847866423,4143512,368153,10077,90.0,60.0
Uttar Pradesh,Bijnor,134,29.313974259681096,78.45098815489754,3682713,268353,7303,90.0,60.0
Uttar Pradesh,Moradabad,135,28.851770406189537,78.73580193423597,4772006,281758,11690,90.0,50.0
Uttar Pradesh,Rampur,136,28.83244727272725,79.10977333333337,2335819,131112,3847,90.0,40.0
Uttar Pradesh,Jyotiba Phule Nagar,137,28.870498984771597,78.39009365482241,1840221,89329,2825,90.0,50.0
Uttar Pradesh,Meerut,138,29.02957625698323,77.80611005586593,3443689,425624,23717,90.0,60.0
Uttar Pradesh,Baghpat,139,29.045793499999988,77.30266300000001,1303048,119121,2989,90.0,60.0
Uttar Pradesh,Ghaziabad,140,28.74997308584685,77.67441879350343,4681645,695130,78116,90.0,70.0
Uttar Pradesh,Gautam Buddha Nagar,141,28.393311038961038,77.52462467532465,1648115,257586,53181,90.0,70.0
Uttar Pradesh,Bulandshahr,142,28.34875862068968,78.01082758620684,3499171,223922,7865,90.0,60.0
Uttar Pradesh,Aligarh,143,27.93748576850093,78.00146831119557,3673889,268120,13634,90.0,60.0
Uttar Pradesh,Mathura,145,27.59390432801821,77.62153416856502,2547184,281239,8726,90.0,60.0
Uttar Pradesh,Agra,146,26.99512974910393,78.05278291517321,4418797,536402,27183,90.0,60.0
Uttar Pradesh,Firozabad,147,27.20963993055552,78.42660624999998,2498156,196080,5834,90.0,60.0
Uttar Pradesh,Mainpuri,148,27.17386862302482,79.03501851015807,1868529,79022,2642,90.0,60.0
Uttar Pradesh,Bareilly,150,28.51101940789474,79.43187072368416,4448359,272830,15164,90.0,50.0
Uttar Pradesh,Pilibhit,151,28.52024175035868,79.90103974175037,2031007,83006,2870,90.0,50.0
Uttar Pradesh,Shahjahanpur,152,27.991389350649328,79.8302275324675,3006538,115163,3889,90.0,50.0
Uttar Pradesh,Sitapur,154,27.501995963091108,80.85288881199547,4483992,102040,3874,90.0,50.0
Uttar Pradesh,Hardoi,155,27.337409090909137,80.26411767676768,4092845,95508,3845,90.0,50.0
Uttar Pradesh,Unnao,156,26.63163990895297,80.636773292868,3108367,99466,3476,90.0,60.0
Uttar Pradesh,Lucknow,157,26.838233589251463,80.89706026871404,4589838,582769,68506,90.0,70.0
Uttar Pradesh,Rae Bareli,158,26.253902840059787,81.22260463378181,3405559,247856,5184,90.0,60.0
Uttar Pradesh,Farrukhabad,159,27.45063297872342,79.4406284574468,1885204,88081,2624,90.0,60.0
Uttar Pradesh,Kannauj,160,26.993988617886185,79.64437940379408,1656616,61491,2488,90.0,60.0
Uttar Pradesh,Etawah,161,26.78817670157068,79.07621806282728,1581810,113098,2964,90.0,70.0
Uttar Pradesh,Auraiya,162,26.66892394014961,79.42637057356607,1379545,65479,2404,90.0,70.0
Uttar Pradesh,Kanpur Dehat,163,26.43047641196011,79.98710083056478,1796184,49753,2682,90.0,70.0
Uttar Pradesh,Jalaun,165,26.067954587155988,79.36686911314993,1689974,104176,2217,90.0,60.0
Uttar Pradesh,Jhansi,166,25.45581535234902,78.89954580536917,1998603,183340,8517,90.0,70.0
Uttar Pradesh,Lalitpur,167,24.58877161016945,78.60082330508473,1221592,77082,1079,90.0,50.0
Uttar Pradesh,Mahoba,169,25.34529670138888,79.67863003472216,875958,42936,1316,90.0,60.0
Uttar Pradesh,Banda,170,25.351885902503284,80.52487391304344,1799410,73522,1655,90.0,60.0
Uttar Pradesh,Chitrakoot,171,25.159924623803,81.07666087551297,991730,41046,827,90.0,50.0
Uttar Pradesh,Fatehpur,172,25.8374362030905,80.85416203090509,2632733,75263,3385,90.0,60.0
Uttar Pradesh,Kaushambi,174,25.53587532051282,81.41811282051287,1599596,43753,1503,90.0,50.0
Uttar Pradesh,Allahabad,175,25.392038662316445,82.05172446982063,5954391,391542,24122,90.0,60.0
Uttar Pradesh,Bara Banki,176,26.922777025232424,81.35762350597606,3260699,108116,3159,90.0,50.0
Uttar Pradesh,Faizabad,177,26.60589185185181,82.00783530864202,2470996,127754,4746,100.0,60.0
Uttar Pradesh,Ambedkar Nagar,178,26.39119025974028,82.68282142857147,2397888,99581,2509,100.0,60.0
Uttar Pradesh,Sultanpur,179,26.2846386419753,82.05710456790123,3797117,233701,5956,100.0,60.0
Uttar Pradesh,Bahraich,180,27.691776300578027,81.46779783237004,3487731,85814,2681,90.0,40.0
Uttar Pradesh,Balrampur,182,27.449076537911324,82.47158326180256,2148665,57400,1551,90.0,40.0
Uttar Pradesh,Gonda,183,27.157215552099505,82.0226888024882,3433919,104084,4313,90.0,50.0
Uttar Pradesh,Basti,185,26.833880454545447,82.69790590909092,2464464,108101,3423,100.0,60.0
Uttar Pradesh,Sant Kabir Nagar,186,26.791596516393444,83.0387764344262,1715183,79525,2031,100.0,60.0
Uttar Pradesh,Gorakhpur,188,26.63315886792452,83.3549560377358,4440895,296619,14597,90.0,60.0
Uttar Pradesh,Kushinagar,189,26.892530675909864,83.92261542461007,3564544,127331,3486,100.0,50.0
Uttar Pradesh,Deoria,190,26.42218856548857,83.8244070686071,3100946,150001,4469,100.0,60.0
Uttar Pradesh,Azamgarh,191,26.008290954773837,83.01220251256285,4613913,183381,6652,100.0,60.0
Uttar Pradesh,Mau,192,26.01082203791469,83.50582654028433,2205968,149908,2656,100.0,60.0
Uttar Pradesh,Ballia,193,25.86075638297873,84.03651978723408,3239774,119972,4672,90.0,60.0
Uttar Pradesh,Jaunpur,194,25.70141280913127,82.54315351934063,4494204,181467,8002,100.0,60.0
Uttar Pradesh,Ghazipur,195,25.624724775583484,83.5360854578097,3620268,105767,5309,100.0,60.0
Uttar Pradesh,Chandauli,196,25.1180859611231,83.25307062634984,1952756,99602,3492,90.0,60.0
Uttar Pradesh,Varanasi,197,25.36057088888889,82.82529666666672,3676841,336056,19214,90.0,70.0
Uttar Pradesh,Mirzapur,199,25.10207959183675,82.60126628571429,2496970,145997,4447,90.0,60.0
Uttar Pradesh,Sonbhadra,200,24.46693268858798,83.06816324951639,1862559,95582,5149,90.0,50.0
Uttar Pradesh,Etah,201,27.591155309734443,78.70021858407083,1774480,69591,2635,90.0,60.0
Bihar,Pashchim Champaran,203,27.16064352201258,84.30265911949685,3935042,57546,3495,90.0,40.0
Bihar,Purba Champaran,204,26.68129336734693,85.00382155612242,5099371,74979,7719,90.0,40.0
Bihar,Sheohar,205,26.458380748663107,85.29539411764709,656246,10004,478,90.0,40.0
Bihar,Sitamarhi,206,26.56570069686413,85.61172491289203,3423574,66263,3460,90.0,40.0
Bihar,Madhubani,207,26.41380538172716,86.16328360450552,4487379,113281,5319,90.0,50.0
Bihar,Supaul,208,26.28157893772896,86.78496465201461,2229076,51028,1845,90.0,50.0
Bihar,Araria,209,26.211528119180603,87.30766554934816,2811569,43290,2561,90.0,40.0
Bihar,Kishanganj,210,26.324336758321294,87.95045007235886,1690400,58718,1093,90.0,40.0
Bihar,Purnia,211,25.81714801901739,87.40447606973065,3264619,86058,4170,90.0,40.0
Bihar,Katihar,212,25.56565356037151,87.70466083591326,3071029,60900,2941,90.0,40.0
Bihar,Madhepura,213,25.77341929460581,86.8978443983403,2001762,23236,1397,90.0,40.0
Bihar,Saharsa,214,25.821270696721303,86.54670819672135,1900661,41342,1668,90.0,40.0
Bihar,Darbhanga,215,26.146187719298258,85.97387352472099,3937385,127442,6280,90.0,50.0
Bihar,Muzaffarpur,216,26.18664417177915,85.32745092024543,4801062,180651,10290,90.0,50.0
Bihar,Gopalganj,217,26.44874364161851,84.34636127167629,2562012,69375,3707,100.0,50.0
Bihar,Siwan,218,26.1736372013652,84.33766552901022,3330464,52935,3834,100.0,60.0
Bihar,Saran,219,25.89656077844312,84.82266287425155,3951862,94787,4509,100.0,50.0
Bihar,Vaishali,220,25.8134703180212,85.39247597173153,3495021,70001,4810,90.0,60.0
Bihar,Samastipur,221,25.793205563909765,85.94833323308269,4261566,88021,5379,90.0,50.0
Bihar,Begusarai,222,25.54302613168723,86.12560144032932,2970541,120373,4644,90.0,50.0
Bihar,Khagaria,223,25.53558891454964,86.56593256351037,1666886,40641,1580,90.0,50.0
Bihar,Bhagalpur,224,25.277192885375477,87.04213814229242,3037766,174534,6764,90.0,50.0
Bihar,Banka,225,24.832355642023337,86.8664916342413,2034763,62359,1704,90.0,50.0
Bihar,Munger,226,25.198537962962963,86.54173672839504,1367765,90461,2653,90.0,60.0
Bihar,Lakhisarai,227,25.183449321266963,86.12825701357468,1000912,44491,1186,90.0,50.0
Bihar,Sheikhpura,228,25.12472436548223,85.77839390862943,636342,20065,631,90.0,50.0
Bihar,Nalanda,229,25.229345508982053,85.48053113772461,2877653,101378,4156,90.0,50.0
Bihar,Patna,230,25.40297114503818,85.3198433587787,5838465,546859,40692,90.0,60.0
Bihar,Bhojpur,231,25.50666439393939,84.49407803030304,2728407,62153,3661,90.0,60.0
Bihar,Buxar,232,25.48593018867924,84.08808081760995,1706352,46760,1784,90.0,60.0
Bihar,Rohtas,234,24.99170460829495,83.9350762672811,2959918,114893,4594,90.0,60.0
Bihar,Aurangabad,235,24.774291867469877,84.45986024096379,2540073,44456,2362,90.0,60.0
Maharashtra,Aurangabad,235,20.0979228832952,75.32072196796334,2540073,44456,2362,90.0,60.0
Bihar,Aurangabad,515,24.774291867469877,84.45986024096379,3701282,589477,23258,90.0,70.0
Maharashtra,Aurangabad,515,20.0979228832952,75.32072196796334,3701282,589477,23258,90.0,70.0
Bihar,Gaya,236,24.7266541547278,84.94291217765044,4391418,112617,6856,90.0,50.0
Bihar,Nawada,237,24.825708836206903,85.61594568965519,2219146,31162,1841,90.0,50.0
Bihar,Jamui,238,24.78418380462726,86.26316298200514,1760405,32633,1839,90.0,50.0
Bihar,Jehanabad,239,25.155679045643165,84.9208124481328,1125313,27641,1106,90.0,50.0
Arunachal Pradesh,Tawang,245,27.680683962264148,91.82504245283016,49977,8635,96,70.0,50.0
Arunachal Pradesh,West Kameng,246,27.46486582278483,92.65015750452083,83947,14188,202,80.0,60.0
Arunachal Pradesh,East Kameng,247,27.371194055944056,93.04741486013997,78690,5318,57,100.0,50.0
Arunachal Pradesh,Papum Pare,248,27.273529716981127,93.54468183962264,176573,30539,2477,100.0,70.0
Arunachal Pradesh,Upper Subansiri,249,28.277196566523585,93.8991435622318,83448,5373,139,100.0,50.0
Arunachal Pradesh,West Siang,250,28.106296920289843,94.53510344202908,112274,14204,303,90.0,60.0
Arunachal Pradesh,East Siang,251,28.15382352941176,95.06499226006191,99214,14231,450,100.0,60.0
Arunachal Pradesh,Upper Siang,252,28.8309244897959,95.00155765306124,35320,6198,97,90.0,50.0
Arunachal Pradesh,Changlang,253,27.36048479338845,96.37552644628106,148226,14593,170,90.0,50.0
Arunachal Pradesh,Tirap,254,26.94406229508198,95.41470327868862,111975,16026,98,90.0,40.0
Arunachal Pradesh,Lower Subansiri,255,27.70849297297297,93.96226108108112,83030,12493,381,100.0,70.0
Arunachal Pradesh,Kurung Kumey,256,28.04853351800553,93.24531994459834,92076,3911,95,100.0,40.0
Arunachal Pradesh,Lower Dibang Valley,258,28.32651730103806,95.76567335640142,54080,5932,207,90.0,60.0
Arunachal Pradesh,Lohit,259,27.946785273972623,96.59670770547945,145726,17157,312,90.0,60.0
Nagaland,Mon,261,26.69207374301676,95.03072988826828,250260,14398,178,90.0,50.0
Nagaland,Mokokchung,262,26.478911764705888,94.522426006192,194622,40154,537,90.0,80.0
Nagaland,Zunheboto,263,26.028178205128206,94.50026666666668,140757,28846,261,100.0,70.0
Nagaland,Wokha,264,26.202611551155112,94.1990815181518,166343,25268,198,100.0,80.0
Nagaland,Dimapur,265,25.814176811594223,93.75074057971014,378811,71413,3303,90.0,70.0
Nagaland,Phek,266,25.63272986577182,94.56814563758392,163418,36182,170,100.0,60.0
Nagaland,Tuensang,267,26.21104453280316,94.85809880715708,196596,24998,155,90.0,60.0
Nagaland,Kohima,270,25.60311428571428,93.78600657596373,267988,50724,1928,90.0,70.0
Manipur,Senapati,272,25.08465586034914,94.03366234413956,479148,22798,256,90.0,60.0
Manipur,Tamenglong,273,24.98312942238265,93.49450740072204,140651,11541,125,90.0,60.0
Manipur,Churachandpur,274,24.30309718875504,93.38671506024085,274143,29894,837,100.0,70.0
Manipur,Bishnupur,275,24.50712111801243,93.8246236024845,237399,34364,676,100.0,70.0
Manipur,Thoubal,276,24.545392553191498,93.97959893617023,422168,49507,880,100.0,60.0
Manipur,Ukhrul,279,25.05900314960629,94.44129566929138,183998,14026,276,90.0,70.0
Manipur,Chandel,280,24.2635812987013,94.09443844155844,144182,18764,184,90.0,60.0
Mizoram,Mamit,281,23.73852942502819,92.4330803833147,86364,12158,90,90.0,70.0
Mizoram,Kolasib,282,24.2020004347826,92.73470391304348,83955,14853,367,100.0,80.0
Mizoram,Aizawl,283,23.90781335453101,92.85359459459472,400309,79804,4019,100.0,90.0
Mizoram,Champhai,284,23.54166580976866,93.24221799485862,125745,23948,186,100.0,80.0
Mizoram,Serchhip,285,23.263864705882344,92.914158496732,64937,12315,131,100.0,80.0
Mizoram,Lunglei,286,23.007717036172675,92.63512555425892,161428,26394,482,90.0,80.0
Mizoram,Lawngtlai,287,22.36102843137253,92.66964156862753,117894,9283,162,90.0,50.0
Mizoram,Saiha,288,22.35744801061008,93.02827931034489,56574,7400,168,100.0,70.0
Tripura,West Tripura,289,23.780166241299337,91.41310788863107,1725739,314567,6394,100.0,80.0
Tripura,South Tripura,290,23.211874098057383,91.6065807585568,876001,133744,948,100.0,70.0
Tripura,Dhalai,291,23.781360477941163,91.94654283088232,378230,46875,273,90.0,70.0
Tripura,North Tripura,292,24.121739755351683,92.17842538226292,693947,81601,997,100.0,70.0
Meghalaya,West Garo Hills,293,25.495285185185185,90.03709947089942,643291,51301,1630,100.0,60.0
Meghalaya,East Garo Hills,294,25.82728228228228,90.64684924924916,317917,24550,288,100.0,60.0
Meghalaya,South Garo Hills,295,25.240568578553614,90.64560349127176,142334,10940,179,90.0,60.0
Meghalaya,West Khasi Hills,296,25.500889926739926,91.25364542124538,383461,32873,149,100.0,60.0
Meghalaya,East Khasi Hills,298,25.303763888888884,91.75922519841272,825922,135941,5032,100.0,70.0
Meghalaya,Jaintia Hills,299,25.33959557069844,92.37608160136298,395124,41677,510,100.0,50.0
Assam,Kokrajhar,300,26.497246635730868,90.13997470997688,887142,41373,1218,100.0,60.0
Assam,Goalpara,302,26.017277777777807,90.59869891598912,1008183,78641,1364,100.0,60.0
Assam,Barpeta,303,26.427872264631056,90.97912010178116,1693622,84804,2078,100.0,50.0
Assam,Nagaon,305,26.26462170626351,92.9306191144708,2823768,195631,5121,100.0,60.0
Assam,Sonitpur,306,26.73514926829268,92.85197804878044,1924110,133368,4358,100.0,60.0
Assam,Lakhimpur,307,27.14128805970149,94.0775949253732,1042137,60296,1948,100.0,70.0
Assam,Dhemaji,308,27.586533438485816,94.71336908517353,686133,28195,1192,100.0,60.0
Assam,Tinsukia,309,27.53549291139241,95.69055949367085,1327929,161718,5135,100.0,60.0
Assam,Dibrugarh,310,27.30612284482757,95.0998282327587,1326335,136685,8817,100.0,70.0
Assam,Jorhat,312,26.76244824016563,94.30197722567289,1092256,122063,5651,100.0,70.0
Assam,Golaghat,313,26.377219709794485,93.82583397823468,1066888,82345,3073,100.0,70.0
Assam,Karbi Anglong,314,26.08966454598031,93.11536570271832,956313,53918,1923,100.0,60.0
Assam,Cachar,316,24.815570668693017,92.86849650455927,1736617,140205,5316,100.0,70.0
Assam,Karimganj,317,24.69660712250711,92.3679498575498,1228686,70951,1933,100.0,60.0
Assam,Hailakandi,318,24.457496089385486,92.59154664804475,659296,44143,1211,100.0,60.0
Assam,Bongaigaon,319,26.45012521994133,90.6734296187684,738804,49866,2523,100.0,60.0
Assam,Kamrup,321,26.170939452054807,91.58863273972592,1517542,122191,3109,90.0,70.0
Assam,Nalbari,323,26.46323767605632,91.40598521126763,771639,68313,1631,90.0,70.0
Assam,Darrang,325,26.58463215962442,92.04141338028155,928500,45444,1166,100.0,50.0
West Bengal,Darjiling,327,26.839619571045585,88.33145067024122,1846823,297176,10943,100.0,70.0
West Bengal,Jalpaiguri,328,26.62642031250004,89.04154375000003,3872846,382500,9322,100.0,60.0
West Bengal,Uttar Dinajpur,330,26.044619165196977,88.23595232216337,3007134,199307,2883,90.0,50.0
West Bengal,Dakshin Dinajpur,331,25.342094363021435,88.69821679819614,1676276,168069,2518,100.0,60.0
West Bengal,Maldah,332,25.08026802575105,88.17191684549356,3988845,297716,5357,90.0,50.0
West Bengal,Murshidabad,333,24.25950655391121,88.16816860465121,7103807,541169,7951,100.0,60.0
West Bengal,Birbhum,334,24.06389342723,87.65153089201888,3502404,333752,5210,100.0,60.0
West Bengal,Barddhaman,335,23.444453888888884,87.8150581111111,7717563,1049943,32323,90.0,70.0
West Bengal,Nadia,336,23.56410971055088,88.58293034547152,5167600,623729,12787,90.0,70.0
West Bengal,Hugli,338,22.87929264705881,88.00010264705891,5519145,965258,31725,100.0,70.0
West Bengal,Bankura,339,23.081280892857155,87.12640053571437,3596674,334670,4273,100.0,60.0
West Bengal,Puruliya,340,23.254192328767108,86.3968532876713,2930115,189889,3551,100.0,60.0
West Bengal,Haora,341,22.401674174428507,87.99421176968654,4850029,796953,30751,90.0,70.0
West Bengal,Kolkata,342,22.550581481481483,88.3527648148148,4496694,927602,136618,90.0,80.0
Jharkhand,Garhwa,346,24.082114689265527,83.68664265536722,1322784,29373,565,90.0,50.0
Jharkhand,Chatra,347,24.11619945750453,84.93295804701627,1042886,27037,590,100.0,50.0
Jharkhand,Giridih,349,24.30578509874329,86.08710915619386,2445474,125431,1944,90.0,50.0
Jharkhand,Deoghar,350,24.33070100755672,86.75697632241814,1492073,130193,1944,90.0,50.0
Jharkhand,Godda,351,24.8189,87.2941735483871,1313551,43230,874,90.0,50.0
Jharkhand,Sahibganj,352,24.93667989690721,87.68264097938142,1150567,34879,591,100.0,40.0
Jharkhand,Pakur,353,24.57260428082189,87.69691969178076,900422,31414,328,100.0,40.0
Jharkhand,Dhanbad,354,23.854509090909097,86.40372924901185,2684487,427173,11568,90.0,60.0
Jharkhand,Bokaro,355,23.6814965034965,85.98398374125864,2062330,274726,9754,90.0,60.0
Jharkhand,Lohardaga,356,23.488796043165483,84.6605169064748,461790,28769,351,100.0,60.0
Jharkhand,Palamu,358,24.196925968109337,84.20310842824594,1939869,68238,2155,90.0,50.0
Jharkhand,Latehar,359,23.72511185840708,84.48298743362837,726978,38194,340,100.0,50.0
Jharkhand,Dumka,362,24.275006125574265,87.27662450229711,1321442,62110,1193,100.0,50.0
Jharkhand,Jamtara,363,23.97873318077801,86.95325080091534,791042,49419,808,100.0,50.0
Jharkhand,Ranchi,364,23.184235061391547,85.31781937244203,2914253,350908,22538,90.0,70.0
Jharkhand,Gumla,366,23.078532948929148,84.55056787479396,1025213,31687,831,100.0,50.0
Jharkhand,Simdega,367,22.608760391198054,84.59193691931536,599578,16865,423,100.0,60.0
Orissa,Jharsuguda,371,21.827058566978184,83.93581682242987,579505,81433,2498,100.0,70.0
Orissa,Sambalpur,372,21.515752380952385,84.34958483245157,1041099,126498,5231,100.0,70.0
Orissa,Sundargarh,374,22.06354819277107,84.50524819277099,2093437,223537,12787,100.0,60.0
Orissa,Mayurbhanj,376,21.897621545157754,86.4030408052231,2519738,140189,2950,100.0,50.0
Orissa,Baleshwar,377,21.48570932311624,87.08085828011933,2320529,296834,7370,100.0,70.0
Orissa,Bhadrak,378,20.95262735257214,86.81496204516931,1506337,164636,2637,100.0,70.0
Orissa,Kendrapara,379,20.606319815982264,86.83763247572003,1440361,173107,1628,100.0,80.0
Orissa,Cuttack,381,20.407640646029623,85.7776810228802,2624470,349587,15046,90.0,80.0
Orissa,Dhenkanal,383,20.79887159353349,85.53226836027711,1192811,117172,1810,90.0,70.0
Orissa,Nayagarh,385,20.192895622119817,85.05614700460825,962789,124984,1163,90.0,70.0
Orissa,Khordha,386,20.054162322274863,85.52234834123229,2251673,349860,35701,90.0,80.0
Orissa,Puri,387,19.83509174603177,85.86698989898981,1698730,201605,3416,100.0,80.0
Orissa,Ganjam,388,19.2632617564534,84.80297710437702,3529031,405298,9049,100.0,60.0
Orissa,Gajapati,389,19.121080882352945,84.14015091911759,577817,63112,635,100.0,50.0
Orissa,Kandhamal,390,20.092878624813142,84.02216352765326,733110,28736,768,100.0,50.0
Orissa,Nuapada,394,20.471309512195116,82.59152536585364,610382,43976,757,100.0,50.0
Orissa,Kalahandi,395,19.784253092783523,83.1124043814433,1576869,91171,1953,100.0,50.0
Orissa,Rayagada,396,19.292840020060204,83.45860120361095,967911,61543,1553,110.00000000000001,40.0
Orissa,Koraput,398,18.82627794779476,82.81278469846964,1379647,85766,3988,100.0,40.0
Orissa,Malkangiri,399,18.25227930367506,81.98293636363628,613192,24604,448,100.0,40.0
Chhattisgarh,Koriya,400,23.50412776859501,82.12515636363635,658917,80023,1667,100.0,60.0
Chhattisgarh,Surguja,401,23.32719278728607,83.23582493887531,2359886,253131,2737,100.0,50.0
Chhattisgarh,Jashpur,402,22.77286167664669,83.8703962075848,851669,76783,567,100.0,60.0
Chhattisgarh,Raigarh,403,22.008265068493166,83.27797698630134,1493984,297308,3342,100.0,60.0
Maharashtra,Raigarh,403,18.453257637845976,73.0090609418579,1493984,297308,3342,100.0,60.0
Chhattisgarh,Raigarh,520,22.008265068493166,83.27797698630134,2634200,547206,38570,100.0,70.0
Maharashtra,Raigarh,520,18.453257637845976,73.0090609418579,2634200,547206,38570,100.0,70.0
Chhattisgarh,Korba,404,22.491712499999995,82.57604326923074,1206640,202380,4544,100.0,60.0
Chhattisgarh,Durg,409,21.194463849287164,81.33181639511197,3343872,614109,16141,100.0,70.0
Chhattisgarh,Raipur,410,20.88603153846152,82.20032759615388,4063872,728556,20261,100.0,60.0
Chhattisgarh,Mahasamund,411,21.223727037773354,82.65925427435384,1032754,212487,961,100.0,60.0
Chhattisgarh,Dhamtari,412,20.554912627291245,81.7569195519348,799781,148926,1016,100.0,70.0
Chhattisgarh,Bastar,414,19.393866751269048,81.52895126903546,1413199,157646,1782,100.0,50.0
Karnataka,Bijapur,417,16.84015316666667,75.95909166666665,255230,12516,117,100.0,30.0
Karnataka,Bijapur,557,16.84015316666667,75.95909166666665,2177331,326594,4987,100.0,60.0
Madhya Pradesh,Sheopur,418,25.78014810996563,77.16911116838484,687861,74770,273,90.0,50.0
Madhya Pradesh,Morena,419,26.37313504531724,77.88447341389724,1965970,131486,1781,80.0,60.0
Madhya Pradesh,Bhind,420,26.35951126187245,78.7618324287653,1703005,107819,1166,80.0,60.0
Madhya Pradesh,Gwalior,421,26.04074441964285,78.12782433035713,2032036,306859,15779,90.0,70.0
Madhya Pradesh,Datia,422,25.90226439560441,78.63916571428574,786754,97696,616,90.0,60.0
Madhya Pradesh,Shivpuri,423,25.37802451874367,77.74861600810549,1726050,148128,1852,90.0,50.0
Madhya Pradesh,Tikamgarh,424,25.14099852104666,78.89357064846428,1445166,132725,1090,90.0,50.0
Madhya Pradesh,Chhatarpur,425,24.813637376460004,79.56449299191374,1762375,176056,1880,90.0,50.0
Madhya Pradesh,Panna,426,24.451325840092657,80.21133001158752,1016520,76097,653,90.0,50.0
Madhya Pradesh,Sagar,427,23.800318709677374,78.71940357771273,2378458,366494,4546,90.0,60.0
Madhya Pradesh,Damoh,428,23.76624407960196,79.47049303482588,1264219,187731,1432,90.0,60.0
Madhya Pradesh,Satna,429,24.62777621776502,80.75547048710598,2228935,294702,3754,90.0,60.0
Madhya Pradesh,Rewa,430,24.861184625158856,81.57572465057183,2365106,251132,3406,90.0,60.0
Madhya Pradesh,Umaria,431,23.59601063063061,80.90879477477475,644758,67975,839,90.0,60.0
Madhya Pradesh,Neemuch,432,24.70311893333336,75.06608186666664,826067,145258,1945,100.0,60.0
Madhya Pradesh,Mandsaur,433,24.19278764044944,75.43588667736759,1340411,239885,2324,100.0,60.0
Madhya Pradesh,Ratlam,434,23.503562290502792,75.14895782122909,1455069,213825,3644,100.0,60.0
Madhya Pradesh,Ujjain,435,23.319288862745065,75.80383717647058,1986864,323379,7501,100.0,60.0
Madhya Pradesh,Shajapur,436,23.566620317220547,76.33555181268885,1512681,232735,1382,90.0,60.0
Madhya Pradesh,Dewas,437,22.7851110021322,76.46088805970157,1563715,270457,3518,90.0,60.0
Madhya Pradesh,Dhar,438,22.572681718963157,75.1105620736698,2185793,349639,2388,100.0,50.0
Madhya Pradesh,Indore,439,22.680265752128648,75.9133801324502,3276697,593576,48691,90.0,70.0
Madhya Pradesh,Barwani,441,21.702135714285724,74.91004719710673,1385881,181139,1158,100.0,40.0
Madhya Pradesh,Rajgarh,442,23.785499026425583,76.66431223922116,1545814,231130,1611,100.0,50.0
Madhya Pradesh,Vidisha,443,23.82838307984792,77.9013507604563,1458875,181510,1926,90.0,60.0
Madhya Pradesh,Bhopal,444,23.480726143790854,77.39246623093679,2371061,452912,40788,90.0,70.0
Madhya Pradesh,Sehore,445,22.9297199679658,77.06780202883085,1311332,212138,1566,90.0,60.0
Madhya Pradesh,Raisen,446,23.292518206521724,78.16305495923909,1331597,194373,1141,90.0,60.0
Madhya Pradesh,Betul,447,21.964626315789477,77.7873428189117,1575362,230974,2109,100.0,60.0
Madhya Pradesh,Harda,448,22.227659781121783,77.07022571819435,570465,95066,986,90.0,60.0
Madhya Pradesh,Hoshangabad,449,22.595268801996703,78.02168094841929,1241350,198076,2871,90.0,70.0
Madhya Pradesh,Katni,450,23.724416229116937,80.33819665871127,1292042,172416,2179,100.0,60.0
Madhya Pradesh,Jabalpur,451,23.18525572327043,79.98328754716981,2463289,452023,20443,90.0,70.0
Madhya Pradesh,Dindori,453,22.83738437047757,81.04332966714911,704524,62372,554,100.0,50.0
Madhya Pradesh,Mandla,454,22.70348712446353,80.38600543633753,1054905,143803,912,100.0,60.0
Madhya Pradesh,Chhindwara,455,22.227966971713823,78.76413136439254,2090922,344875,3588,100.0,60.0
Madhya Pradesh,Seoni,456,22.33230487804874,79.66053863928111,1379131,228695,1182,100.0,60.0
Madhya Pradesh,Balaghat,457,21.80020720640569,80.42170053380796,1701698,277927,1712,100.0,70.0
Madhya Pradesh,Guna,458,24.49043927178156,77.2235895968791,1241519,144248,2482,90.0,50.0
Madhya Pradesh,Ashoknagar,459,24.63098846153845,77.82974493927134,845071,84720,619,90.0,60.0
Madhya Pradesh,Shahdol,460,23.44859864559819,81.4596831828442,1066063,113184,1733,100.0,60.0
Madhya Pradesh,Anuppur,461,23.18184220430107,81.86560000000007,749237,81338,1290,100.0,60.0
Madhya Pradesh,Sidhi,462,24.17547189952905,82.1053783359498,1127033,102228,837,100.0,50.0
Madhya Pradesh,Jhabua,464,22.419578015397768,74.40921616766468,1025048,125411,744,100.0,30.0
Madhya Pradesh,Burhanpur,467,21.364567254408065,76.24460478589425,757847,112420,986,100.0,50.0
Gujarat,Kachchh,468,23.48057203301311,68.82192301497916,2092371,403294,9631,90.0,60.0
Gujarat,Banas Kantha,469,24.258538965517253,71.93205252873561,3120506,396873,3424,90.0,50.0
Gujarat,Patan,470,23.80634198473284,71.75162977099237,1343734,223424,2231,90.0,60.0
Gujarat,Mahesana,471,23.529355452865065,72.45545194085031,2035064,385609,7759,90.0,70.0
Gujarat,Sabar Kantha,472,23.71803594548552,73.13638790459964,2428589,438606,5262,100.0,70.0
Gujarat,Gandhinagar,473,23.193679790026252,72.67221679790026,1391753,262539,12107,90.0,70.0
Gujarat,Ahmadabad,474,22.605425564971743,72.23898135593227,7214225,1456046,126341,90.0,80.0
Gujarat,Surendranagar,475,22.82672007299272,71.48358740875906,1756268,302068,2975,90.0,60.0
Gujarat,Rajkot,476,22.40603377715488,70.83679439383323,3804558,747352,21785,90.0,70.0
Gujarat,Jamnagar,477,22.410600414263328,69.62062005768233,2160119,386538,11573,90.0,60.0
Gujarat,Porbandar,478,21.55092351651571,69.71896987722886,585449,117040,1653,100.0,70.0
Daman and Diu,Junagadh,479,20.72568199498111,70.83985639899612,2743082,498326,6628,100.0,70.0
Gujarat,Junagadh,479,20.929523011609785,70.54733890140345,2743082,498326,6628,100.0,70.0
Gujarat,Amreli,480,21.04832649310872,71.43457637825426,1514190,273331,2538,100.0,70.0
Gujarat,Bhavnagar,481,21.70219390341736,72.16272632761141,2880365,500757,7297,90.0,70.0
Gujarat,Anand,482,22.282718206229863,72.57782051557454,2092745,378310,9902,90.0,70.0
Gujarat,Kheda,483,22.88765312500002,73.018803515625,2299885,372226,5710,90.0,70.0
Gujarat,Panch Mahals,484,22.80435606837605,73.61984598290586,2390776,398937,3456,90.0,60.0
Gujarat,Vadodara,486,22.26133739279589,73.49433010291594,4165626,798277,53606,90.0,70.0
Gujarat,Narmada,487,21.70666386292833,73.68403208722742,590297,101940,576,100.0,60.0
Gujarat,Bharuch,488,21.75787276237761,72.67326346710801,1551019,309091,10257,90.0,70.0
Gujarat,The Dangs,489,20.801633877551023,73.6883518367347,228291,29794,137,100.0,60.0
Gujarat,Navsari,490,20.866973318871995,72.86184869848157,1329672,267679,6726,100.0,80.0
Gujarat,Valsad,491,20.44238231644259,72.9148584798345,1705678,329218,11020,90.0,70.0
Gujarat,Surat,492,21.25761372772093,72.93488716344339,6081322,1252452,55694,80.0,80.0
Daman and Diu,Daman,495,20.431616666666677,72.8392366071429,191173,49249,1316,50.0,80.0
Maharashtra,Nandurbar,497,21.523175625248147,74.32638757443429,1648295,186202,2579,100.0,50.0
Maharashtra,Dhule,498,21.274018690400517,74.58719071837263,2050862,315332,6065,90.0,60.0
Maharashtra,Jalgaon,499,20.8828943415638,75.55140421810695,4229917,720791,14297,90.0,70.0
Maharashtra,Buldana,500,20.56680611183355,76.39017880364096,2586258,423036,4767,90.0,70.0
Maharashtra,Akola,501,20.746310479041902,77.12122320359276,1813906,314490,6163,90.0,80.0
Maharashtra,Washim,502,20.282282394366213,77.25502394366208,1197160,196022,1875,90.0,70.0
Maharashtra,Amravati,503,21.16520991810736,77.67583503184723,2888445,512492,9438,100.0,80.0
Maharashtra,Wardha,504,20.80743024390242,78.57259105691062,1300774,266155,4313,90.0,80.0
Maharashtra,Nagpur,505,21.196556862745105,79.02166176470584,4653570,917626,57964,100.0,80.0
Maharashtra,Bhandara,506,21.211792649727748,80.10950199637024,1200334,227025,2932,100.0,70.0
Maharashtra,Gondiya,507,21.225008411214997,80.17522698598128,1322507,239981,2866,100.0,80.0
Maharashtra,Chandrapur,509,20.095609090909075,79.31556380471388,2204307,418666,8239,100.0,70.0
Maharashtra,Yavatmal,510,20.04258346738159,78.05326371760479,2772348,446516,6094,100.0,70.0
Maharashtra,Nanded,511,19.209316983017,77.6829048951049,3361292,488748,7548,90.0,70.0
Maharashtra,Hingoli,512,19.59525302245251,77.09239412780653,1177345,159114,1221,90.0,70.0
Maharashtra,Parbhani,513,19.31032425249168,76.70163338870431,1836086,272486,3982,90.0,60.0
Maharashtra,Jalna,514,19.984612534818933,75.98473607242339,1959046,288895,3791,90.0,60.0
Maharashtra,Nashik,516,20.266912871287143,74.03824168316828,6107187,904710,45039,90.0,70.0
Maharashtra,Thane,517,19.698767747440264,72.79882742564581,11060148,2231800,256170,90.0,70.0
Maharashtra,Pune,521,18.51696171428573,74.12922881632647,9429408,1925019,235018,90.0,80.0
Maharashtra,Bid,523,18.952353340080982,75.69319706477731,2585049,402052,5614,90.0,70.0
Maharashtra,Latur,524,18.348687268993856,76.75812607802874,2454196,381722,6217,90.0,70.0
Maharashtra,Osmanabad,525,18.19459456066944,75.99495575313809,1657576,240042,3209,90.0,70.0
Maharashtra,Solapur,526,17.837357937584812,75.42394823609216,4317756,595560,15145,90.0,70.0
Maharashtra,Satara,527,17.6737908974359,74.18052064102558,3003741,562653,14093,100.0,70.0
Maharashtra,Ratnagiri,528,17.210195070127703,73.25725893866404,1615069,367352,7752,110.00000000000001,70.0
Maharashtra,Sindhudurg,529,16.170948049777163,73.51329008172343,849651,194228,3517,100.0,80.0
Maharashtra,Kolhapur,530,16.44881301587301,74.12897150793648,3876001,770005,22269,100.0,70.0
Maharashtra,Sangli,531,17.154930181086502,74.70713822937628,2822143,485126,13212,100.0,70.0
Andhra Pradesh,Adilabad,532,19.284513950073435,78.81321233480176,2741239,566108,5512,100.0,50.0
Andhra Pradesh,Nizamabad,533,18.429485849056604,78.07523490566035,2551335,545913,5261,100.0,50.0
Andhra Pradesh,Karimnagar,534,18.515483193277312,79.43765428571413,3776269,926768,8831,100.0,60.0
Andhra Pradesh,Medak,535,17.889304978038055,78.13778901903379,3033288,604719,8635,100.0,50.0
Andhra Pradesh,Hyderabad,536,17.38971555555556,78.46668888888888,3943323,869721,149034,100.0,70.0
Andhra Pradesh,Mahbubnagar,538,16.639546224256293,77.98933089244859,4053028,757821,6153,100.0,50.0
Andhra Pradesh,Nalgonda,539,17.113250515463907,79.16984453608244,3488809,789225,7715,100.0,60.0
Andhra Pradesh,Warangal,540,18.01752608695651,79.87422028985509,3512576,828077,12952,100.0,60.0
Andhra Pradesh,Khammam,541,17.683921325051784,80.67008643892335,2797370,668519,8628,100.0,60.0
Andhra Pradesh,Srikakulam,542,18.570900998697432,84.25874814010675,2703114,615432,3988,100.0,60.0
Andhra Pradesh,Vizianagaram,543,18.28329696032972,83.45982854198873,2344474,527736,4453,100.0,50.0
Andhra Pradesh,East Godavari,545,16.782718320784902,82.2432074720511,5154296,1297273,22411,100.0,60.0
Andhra Pradesh,West Godavari,546,16.63297943925236,81.45912990654196,3936966,1017568,12050,100.0,70.0
Andhra Pradesh,Krishna,547,16.143872753151673,81.14805061000413,4517398,1163932,30438,100.0,70.0
Andhra Pradesh,Guntur,548,15.884925767634847,80.58657614107885,4887813,1186028,19383,100.0,60.0
Andhra Pradesh,Prakasam,549,15.489039001601704,80.11665790176184,3397448,763746,6151,100.0,60.0
Andhra Pradesh,Kurnool,552,15.43759715142429,77.90086836581717,4053463,816721,10081,100.0,50.0
Andhra Pradesh,Anantapur,553,14.312065561843148,77.4601584478577,4081148,897970,8606,100.0,60.0
Andhra Pradesh,Chittoor,554,13.33109263067696,78.92763898886037,4174064,944555,13763,100.0,60.0
Karnataka,Belgaum,555,16.16107219152853,74.72329042357275,4779661,808827,17560,100.0,60.0
Karnataka,Bagalkot,556,16.15860676328503,75.64526070853468,1889752,301389,3745,100.0,60.0
Karnataka,Bidar,558,17.950361730769224,77.19459961538459,1703300,271439,3971,100.0,60.0
Karnataka,Raichur,559,16.050795353982295,76.87368606194688,1928812,314547,5200,100.0,50.0
Karnataka,Koppal,560,15.651253271028034,76.1617048598131,1389920,223166,2135,100.0,60.0
Karnataka,Gadag,561,15.507128256880746,75.64861302752298,1064570,198064,3373,100.0,70.0
Karnataka,Dharwad,562,15.343831376975173,75.13831264108359,1847023,347962,15013,100.0,70.0
Karnataka,Haveri,564,14.737582809224318,75.3961230607966,1597668,295937,2456,100.0,70.0
Karnataka,Bellary,565,15.074377548209377,76.47228471074374,2452595,440374,9626,100.0,60.0
Karnataka,Chitradurga,566,14.29102220394736,76.57821957236843,1659456,307257,5711,100.0,70.0
Karnataka,Davanagere,567,14.330414586709884,75.91723841166937,1945497,372671,7320,100.0,70.0
Karnataka,Shimoga,568,14.063845885634592,75.17882078103197,1752753,363835,8791,100.0,70.0
Karnataka,Udupi,569,13.450404228534568,74.72009990316337,1177361,224814,9070,110.00000000000001,80.0
Karnataka,Chikmagalur,570,13.425288289676422,75.67626502311249,1137961,238505,4510,100.0,70.0
Karnataka,Tumkur,571,13.592467760074973,77.02297966260545,2678980,562769,7971,100.0,70.0
Karnataka,Mandya,573,12.574901806239744,76.81570098522172,1805769,391033,3367,100.0,60.0
Karnataka,Hassan,574,12.945098749999998,76.11049549999997,1776421,400702,4851,100.0,70.0
Karnataka,Kodagu,576,12.39684468085106,75.79336595744688,554519,113931,3308,100.0,70.0
Karnataka,Mysore,577,12.248100259403367,76.52881802853437,3001127,640868,28397,100.0,70.0
Karnataka,Gulbarga,579,17.070459515951594,76.87503850385033,2566326,404767,9752,100.0,60.0
Karnataka,Kolar,581,13.312799881235172,78.01376947743476,1536401,309494,5051,100.0,70.0
Karnataka,Bangalore Rural,583,12.936827087794448,77.47369314775169,990923,214253,3729,90.0,70.0
Goa,North Goa,585,15.548723418714054,73.80667997909038,818008,173951,23440,100.0,80.0
Goa,South Goa,586,15.195278658183785,73.941792596877,640537,138810,17624,100.0,80.0
Kerala,Kasaragod,588,12.33310309912974,75.07768497134369,1307375,237670,10378,110.00000000000001,80.0
Kerala,Kannur,589,11.941523076923056,75.35209891725934,2523003,511167,32653,110.00000000000001,80.0
Kerala,Wayanad,590,11.715277464788736,76.07587007042254,817420,149864,4712,100.0,80.0
Kerala,Kozhikode,591,11.392924270557026,75.71158720159153,3086293,641660,36791,110.00000000000001,80.0
Kerala,Malappuram,592,10.97329875666072,75.93910775606876,4112920,730119,27909,110.00000000000001,80.0
Kerala,Palakkad,593,10.784926903553291,76.49980490693744,2809934,587583,27162,110.00000000000001,80.0
Kerala,Thrissur,594,10.458932647907687,76.12321940836945,3121200,721625,56148,110.00000000000001,90.0
Kerala,Ernakulam,595,10.004879301987431,76.26957729035381,3282388,771287,88737,100.0,90.0
Kerala,Idukki,596,9.80480963855423,77.04586641566264,1108974,244844,8250,100.0,80.0
Kerala,Kottayam,597,9.643701174068417,76.46059673302705,1974551,464039,37849,100.0,90.0
Kerala,Alappuzha,598,9.542602965599087,76.38010796263319,2127789,507913,28842,110.00000000000001,90.0
Kerala,Kollam,600,8.929388820570157,76.6360775852431,2635375,630767,31542,110.00000000000001,90.0
Kerala,Thiruvananthapuram,601,8.537101759082221,76.88711502868073,3301427,783872,71621,110.00000000000001,80.0
Tamil Nadu,Thiruvallur,602,13.275858101752885,80.19724702864492,3728104,909400,75634,100.0,70.0
Tamil Nadu,Chennai,603,13.058098905608748,80.28139151846806,4646732,1096334,217368,100.0,80.0
Tamil Nadu,Kancheepuram,604,12.496424756511884,80.08820360135913,3998252,961161,100322,100.0,80.0
Tamil Nadu,Vellore,605,12.784882632293078,79.02643283582084,3936331,865913,20623,100.0,70.0
Tamil Nadu,Tiruvannamalai,606,12.419318947368414,79.23265631578953,2464875,549077,6445,100.0,70.0
Tamil Nadu,Salem,608,11.629324202127655,78.2478257978723,3482056,835377,20660,100.0,70.0
Tamil Nadu,Namakkal,609,11.33766638477801,78.14624841437633,1726601,441044,8960,100.0,70.0
Tamil Nadu,Erode,610,11.267012155963302,77.42034334862392,2251744,595211,18604,100.0,70.0
Tamil Nadu,Dindigul,612,10.377801390820574,77.78011279554937,2159775,500057,9155,100.0,70.0
Tamil Nadu,Karur,613,10.79532776617955,78.08749686847604,1064493,264949,4915,100.0,70.0
Tamil Nadu,Perambalur,615,11.260137758112096,78.86034011799416,565223,135751,1507,100.0,70.0
Tamil Nadu,Ariyalur,616,11.190514836795256,79.22249643916912,754894,177502,1749,100.0,60.0
Tamil Nadu,Cuddalore,617,11.57587300613498,79.63002365371497,2605914,598412,15396,100.0,70.0
Tamil Nadu,Nagapattinam,618,10.789468161718286,79.79437299431483,1616450,381940,5585,100.0,80.0
Tamil Nadu,Thiruvarur,619,10.368927409395978,79.60322893959727,1264277,303114,4416,100.0,70.0
Tamil Nadu,Thanjavur,620,10.387692255892237,79.3194869107745,2405890,555582,13495,100.0,70.0
Tamil Nadu,Pudukkottai,621,10.130514816433578,79.05444484265728,1618345,354493,4494,100.0,70.0
Tamil Nadu,Sivaganga,622,9.960306580645158,78.56535729032255,1339101,314270,5773,100.0,70.0
Tamil Nadu,Madurai,623,9.904313833333331,78.01366033333332,3038252,754141,34097,100.0,70.0
Tamil Nadu,Theni,624,9.924066666666668,77.43458833333332,1245899,312310,4667,100.0,70.0
Tamil Nadu,Virudhunagar,625,9.468872195892564,77.87641469194315,1942288,505950,10219,100.0,70.0
Tamil Nadu,Ramanathapuram,626,9.31286995153476,78.99185362412462,1353445,291400,5172,100.0,70.0
Tamil Nadu,Kanniyakumari,629,8.183466300191206,77.32053064053538,1870374,465692,15673,100.0,80.0
Tamil Nadu,Dharmapuri,630,12.300141200000006,78.11509813333339,1506843,337972,3651,90.0,60.0
Tamil Nadu,Coimbatore,632,10.871376995940452,77.07619012178621,3458045,896325,63273,100.0,80.0
Puducherry,Yanam,634,16.707695652173904,82.26187304347832,55626,12859,207,100.0,70.0
Puducherry,Mahe,636,12.006420793787758,75.28275021570326,41816,7150,574,120.0,90.0
Puducherry,Karaikal,637,10.876161726078813,79.82369793621002,200222,47880,1868,100.0,80.0
